id,country_name,province_name,iso2,iso3,latitude,longitude,population
1,Afghanistan,,AF,AFG,33.93911,67.709953,38928341
2,Albania,,AL,ALB,41.1533,20.1683,2877800
3,Algeria,,DZ,DZA,28.0339,1.6596,43851043
4,Andorra,,AD,AND,42.5063,1.5218,77265
5,Angola,,AO,AGO,-11.2027,17.8739,32866268
6,Antarctica,,AQ,ATA,-71.9499,23.347,0
7,Antigua and Barbuda,,AG,ATG,17.0608,-61.7964,97928
8,Argentina,,AR,ARG,-38.4161,-63.6167,45195777
9,Armenia,,AM,ARM,40.0691,45.0382,2963234
10,Australia,Australian Capital Territory,AU,AUS,-35.4735,149.0124,428100
11,Australia,New South Wales,AU,AUS,-33.8688,151.2093,8118000
12,Australia,,AU,AUS,-25.0,133.0,25459700
13,Australia,Northern Territory,AU,AUS,-12.4634,130.8456,245600
14,Australia,Queensland,AU,AUS,-27.4698,153.0251,5115500
15,Australia,South Australia,AU,AUS,-34.9285,138.6007,1756500
16,Australia,Tasmania,AU,AUS,-42.8821,147.3272,535500
17,Australia,Victoria,AU,AUS,-37.8136,144.9631,6629900
18,Australia,Western Australia,AU,AUS,-31.9505,115.8605,2630600
19,Austria,,AT,AUT,47.5162,14.5501,9006400
20,Azerbaijan,,AZ,AZE,40.1431,47.5769,10139175
21,Bahamas,,BS,BHS,25.025885,-78.035889,393248
22,Bahrain,,BH,BHR,26.0275,50.55,1701583
23,Bangladesh,,BD,BGD,23.685,90.3563,164689383
24,Barbados,,BB,BRB,13.1939,-59.5432,287371
25,Belarus,,BY,BLR,53.7098,27.9534,9449321
26,Belgium,Antwerp,BE,BEL,51.2195,4.4024,1869730
27,Belgium,Brussels,BE,BEL,50.8503,4.3517,1218255
28,Belgium,East Flanders,BE,BEL,51.0362,3.7373,1525255
29,Belgium,Flemish Brabant,BE,BEL,50.9167,4.5833,1155843
30,Belgium,Hainaut,BE,BEL,50.5257,4.0621,1346840
31,Belgium,Liege,BE,BEL,50.4496,5.8492,1109800
32,Belgium,Limburg,BE,BEL,50.9739,5.342,877370
33,Belgium,Luxembourg,BE,BEL,50.0547,5.4677,286752
34,Belgium,Namur,BE,BEL,50.331,4.8221,495832
35,Belgium,,BE,BEL,50.8333,4.469936,11492641
36,Belgium,Walloon Brabant,BE,BEL,50.4,4.35,406019
37,Belgium,West Flanders,BE,BEL,51.0536,3.1458,1200945
38,Belize,,BZ,BLZ,17.1899,-88.4976,397621
39,Benin,,BJ,BEN,9.3077,2.3158,12123198
40,Bhutan,,BT,BTN,27.5142,90.4336,771612
41,Bolivia,,BO,BOL,-16.2902,-63.5887,11673029
42,Bosnia and Herzegovina,,BA,BIH,43.9159,17.6791,3280815
43,Botswana,,BW,BWA,-22.3285,24.6849,2351625
44,Brazil,Acre,BR,BRA,-9.0238,-70.812,881935
45,Brazil,Alagoas,BR,BRA,-9.5713,-36.782,3337357
46,Brazil,Amapa,BR,BRA,0.902,-52.003,845731
47,Brazil,Amazonas,BR,BRA,-3.4168,-65.8561,4144597
48,Brazil,Bahia,BR,BRA,-12.5797,-41.7007,14873064
49,Brazil,Ceara,BR,BRA,-5.4984,-39.3206,9132078
50,Brazil,Distrito Federal,BR,BRA,-15.7998,-47.8645,3015268
51,Brazil,Espirito Santo,BR,BRA,-19.1834,-40.3089,4018650
52,Brazil,Goias,BR,BRA,-15.827,-49.8362,7018354
53,Brazil,Maranhao,BR,BRA,-4.9609,-45.2744,7075181
54,Brazil,Mato Grosso,BR,BRA,-12.6819,-56.9211,3484466
55,Brazil,Mato Grosso do Sul,BR,BRA,-20.7722,-54.7852,2778986
56,Brazil,Minas Gerais,BR,BRA,-18.5122,-44.555,21168791
57,Brazil,,BR,BRA,-14.235,-51.9253,212559409
58,Brazil,Para,BR,BRA,-1.9981,-54.9306,8602865
59,Brazil,Paraiba,BR,BRA,-7.24,-36.782,4018127
60,Brazil,Parana,BR,BRA,-25.2521,-52.0215,11433957
61,Brazil,Pernambuco,BR,BRA,-8.8137,-36.9541,9557071
62,Brazil,Piaui,BR,BRA,-7.7183,-42.7289,3273227
63,Brazil,Rio Grande do Norte,BR,BRA,-5.4026,-36.9541,3506853
64,Brazil,Rio Grande do Sul,BR,BRA,-30.0346,-51.2177,11377239
65,Brazil,Rio de Janeiro,BR,BRA,-22.9068,-43.1729,17264943
66,Brazil,Rondonia,BR,BRA,-11.5057,-63.5806,1777225
67,Brazil,Roraima,BR,BRA,-2.7376,-62.0751,605761
68,Brazil,Santa Catarina,BR,BRA,-27.2423,-50.2189,7164788
69,Brazil,Sao Paulo,BR,BRA,-23.5505,-46.6333,45919049
70,Brazil,Sergipe,BR,BRA,-10.5741,-37.3857,2298696
71,Brazil,Tocantins,BR,BRA,-10.1753,-48.2982,1572866
72,Brunei,,BN,BRN,4.5353,114.7277,437483
73,Bulgaria,,BG,BGR,42.7339,25.4858,6948445
74,Burkina Faso,,BF,BFA,12.2383,-1.5616,20903278
75,Burma,,MM,MMR,21.9162,95.956,54409794
76,Burundi,,BI,BDI,-3.3731,29.9189,11890781
77,Cabo Verde,,CV,CPV,16.5388,-23.0418,555988
78,Cambodia,,KH,KHM,11.55,104.9167,16718971
79,Cameroon,,CM,CMR,3.848,11.5021,26545864
80,Canada,Alberta,CA,CAN,53.9333,-116.5765,4442879
81,Canada,British Columbia,CA,CAN,53.7267,-127.6476,5214805
82,Canada,Diamond Princess,CA,CAN,,,0
83,Canada,Grand Princess,CA,CAN,,,0
84,Canada,Manitoba,CA,CAN,53.7609,-98.8139,1383765
85,Canada,New Brunswick,CA,CAN,46.5653,-66.4619,789225
86,Canada,Newfoundland and Labrador,CA,CAN,53.1355,-57.6604,520553
87,Canada,,CA,CAN,60.0,-95.0,38246108
88,Canada,Northwest Territories,CA,CAN,64.8255,-124.8457,45504
89,Canada,Nova Scotia,CA,CAN,44.682,-63.7443,992055
90,Canada,Nunavut,CA,CAN,70.2998,-83.1076,39403
91,Canada,Ontario,CA,CAN,51.2538,-85.3232,14826276
92,Canada,Prince Edward Island,CA,CAN,46.5107,-63.4168,164318
93,Canada,Quebec,CA,CAN,52.9399,-73.5491,8604495
94,Canada,Recovered,CA,CAN,,,0
95,Canada,Saskatchewan,CA,CAN,52.9399,-106.4509,1179844
96,Canada,Yukon,CA,CAN,64.2823,-135.0,42986
97,Central African Republic,,CF,CAF,6.6111,20.9394,4829764
98,Chad,,TD,TCD,15.4542,18.7322,16425859
99,Chile,Antofagasta,CL,CHL,-23.6509,-70.3975,607534
100,Chile,Araucania,CL,CHL,-38.9489,-72.3311,957224
101,Chile,Arica y Parinacota,CL,CHL,-18.594,-69.4785,226068
102,Chile,Atacama,CL,CHL,-27.5661,-70.0503,288944
103,Chile,Aysen,CL,CHL,-45.9864,-73.7669,103158
104,Chile,Biobio,CL,CHL,-37.4464,-72.1416,1556805
105,Chile,Coquimbo,CL,CHL,-29.959,-71.3389,757586
106,Chile,Los Lagos,CL,CHL,-41.9198,-72.1416,828708
107,Chile,Los Rios,CL,CHL,-40.231,-72.3311,384837
108,Chile,Magallanes,CL,CHL,-52.368,-70.9863,166533
109,Chile,Maule,CL,CHL,-35.5183,-71.6885,1044950
110,Chile,Metropolitana,CL,CHL,-33.4376,-70.6505,7112808
111,Chile,,CL,CHL,-35.6751,-71.543,19116209
112,Chile,Nuble,CL,CHL,-36.7226,-71.7622,480609
113,Chile,OHiggins,CL,CHL,-34.5755,-71.0022,914555
114,Chile,Tarapaca,CL,CHL,-19.9232,-69.5132,330558
115,Chile,Valparaiso,CL,CHL,-33.0472,-71.6127,1815902
116,China,Anhui,CN,CHN,31.8257,117.2264,61027171
117,China,Beijing,CN,CHN,40.1824,116.4142,21893095
118,China,Chongqing,CN,CHN,30.0572,107.874,32054159
119,China,Fujian,CN,CHN,26.0789,117.9874,41540086
120,China,Gansu,CN,CHN,35.7518,104.2861,25019831
121,China,Guangdong,CN,CHN,23.3417,113.4244,126012510
122,China,Guangxi,CN,CHN,23.8298,108.7881,50126804
123,China,Guizhou,CN,CHN,26.8154,106.8748,38562148
124,China,Hainan,CN,CHN,19.1959,109.7453,10081232
125,China,Hebei,CN,CHN,37.8957,114.9042,74610235
126,China,Heilongjiang,CN,CHN,47.862,127.7615,31850088
127,China,Henan,CN,CHN,33.882,113.614,99365519
128,China,Hong Kong,HK,HKG,22.3,114.2,7496988
129,China,Hubei,CN,CHN,30.9756,112.2707,57752557
130,China,Hunan,CN,CHN,27.6104,111.7088,66444864
131,China,Inner Mongolia,CN,CHN,44.0935,113.9448,24049155
132,China,Jiangsu,CN,CHN,32.9711,119.455,84748016
133,China,Jiangxi,CN,CHN,27.614,115.7221,45188635
134,China,Jilin,CN,CHN,43.6661,126.1923,24073453
135,China,Liaoning,CN,CHN,41.2956,122.6085,42591407
136,China,Macau,MO,MAC,22.1667,113.55,649342
137,China,Ningxia,CN,CHN,37.2692,106.1655,7202654
138,China,,CN,CHN,35.8617,104.19545,1411778724
139,China,Qinghai,CN,CHN,35.7452,95.9956,5923957
140,China,Shaanxi,CN,CHN,35.1917,108.8701,39528999
141,China,Shandong,CN,CHN,36.3427,118.1498,101527453
142,China,Shanghai,CN,CHN,31.202,121.4491,24870895
143,China,Shanxi,CN,CHN,37.5777,112.2922,34915616
144,China,Sichuan,CN,CHN,30.6171,102.7103,83674866
145,China,Tianjin,CN,CHN,39.3054,117.323,13866009
146,China,Tibet,CN,CHN,31.6927,88.0924,3648100
147,China,Xinjiang,CN,CHN,41.1129,85.2401,25852345
148,China,Yunnan,CN,CHN,24.974,101.487,47209277
149,China,Zhejiang,CN,CHN,29.1832,120.0934,64567588
150,Colombia,Amazonas,CO,COL,-1.4429,-71.5724,76589
151,Colombia,Antioquia,CO,COL,7.1986,-75.3412,6407102
152,Colombia,Arauca,CO,COL,7.0762,-70.7105,262174
153,Colombia,Atlantico,CO,COL,10.6966,-74.8741,2535517
154,Colombia,Bolivar,CO,COL,8.6704,-74.03,2070110
155,Colombia,Boyaca,CO,COL,5.4545,-73.362,1217376
156,Colombia,Caldas,CO,COL,5.2983,-75.2479,998255
157,Colombia,Capital District,CO,COL,4.711,-74.0721,7412566
158,Colombia,Caqueta,CO,COL,0.8699,-73.8419,401489
159,Colombia,Casanare,CO,COL,5.7589,-71.5724,420504
160,Colombia,Cauca,CO,COL,2.705,-76.826,1464488
161,Colombia,Cesar,CO,COL,9.3373,-73.6536,1200574
162,Colombia,Choco,CO,COL,5.2528,-76.826,534826
163,Colombia,Cordoba,CO,COL,8.0493,-75.574,1784783
164,Colombia,Cundinamarca,CO,COL,5.026,-74.03,2919060
165,Colombia,Guainia,CO,COL,2.5854,-68.5247,48114
166,Colombia,Guaviare,CO,COL,1.0654,-73.2603,82767
167,Colombia,Huila,CO,COL,2.5359,-75.5277,1100386
168,Colombia,La Guajira,CO,COL,11.3548,-72.5205,880560
169,Colombia,Magdalena,CO,COL,10.4113,-74.4057,1341746
170,Colombia,Meta,CO,COL,3.272,-73.0877,1039722
171,Colombia,Narino,CO,COL,1.2892,-77.3579,1630592
172,Colombia,,CO,COL,4.5709,-74.2973,50882884
173,Colombia,Norte de Santander,CO,COL,7.9463,-72.8988,1491689
174,Colombia,Putumayo,CO,COL,0.436,-75.5277,348182
175,Colombia,Quindio,CO,COL,4.461,-75.6674,539904
176,Colombia,Risaralda,CO,COL,5.3158,-75.9928,943401
177,Colombia,San Andres y Providencia,CO,COL,12.5567,-81.7185,61280
178,Colombia,Santander,CO,COL,6.6437,-73.6536,2184837
179,Colombia,Sucre,CO,COL,8.814,-74.7233,904863
180,Colombia,Tolima,CO,COL,4.0925,-75.1545,1330187
181,Colombia,Valle del Cauca,CO,COL,3.8009,-76.6413,4475886
182,Colombia,Vaupes,CO,COL,0.8554,-70.812,40797
183,Colombia,Vichada,CO,COL,4.4234,-69.2878,107808
184,Comoros,,KM,COM,-11.6455,43.3333,869595
185,Congo (Brazzaville),,CG,COG,-0.228,15.8277,5518092
186,Congo (Kinshasa),,CD,COD,-4.0383,21.7587,89561404
187,Costa Rica,,CR,CRI,9.7489,-83.7534,5094114
188,Cote d'Ivoire,,CI,CIV,7.54,-5.5471,26378275
189,Croatia,,HR,HRV,45.1,15.2,4105268
190,Cuba,,CU,CUB,21.521757,-77.781167,11326616
191,Cyprus,,CY,CYP,35.1264,33.4299,1207361
192,Czechia,,CZ,CZE,49.8175,15.473,10708982
193,Denmark,Faroe Islands,FO,FRO,61.8926,-6.9118,48865
194,Denmark,Greenland,GL,GRL,71.7069,-42.6043,56772
195,Denmark,,DK,DNK,56.2639,9.5018,5837213
196,Diamond Princess,,,,,,0
197,Djibouti,,DJ,DJI,11.8251,42.5903,988002
198,Dominica,,DM,DMA,15.415,-61.371,71991
199,Dominican Republic,,DO,DOM,18.7357,-70.1627,10847904
200,Ecuador,,EC,ECU,-1.8312,-78.1834,17643060
201,Egypt,,EG,EGY,26.820553,30.802498,102334403
202,El Salvador,,SV,SLV,13.7942,-88.8965,6486201
203,Equatorial Guinea,,GQ,GNQ,1.6508,10.2679,1402985
204,Eritrea,,ER,ERI,15.1794,39.7823,3546427
205,Estonia,,EE,EST,58.5953,25.0136,1326539
206,Eswatini,,SZ,SWZ,-26.5225,31.4659,1160164
207,Ethiopia,,ET,ETH,9.145,40.4897,114963583
208,Fiji,,FJ,FJI,-17.7134,178.065,896444
209,Finland,,FI,FIN,61.92411,25.748151,5540718
210,France,French Guiana,GF,GUF,4.0,-53.0,298682
211,France,French Polynesia,PF,PYF,-17.6797,-149.4068,280904
212,France,Guadeloupe,GP,GLP,16.265,-61.551,400127
213,France,Martinique,MQ,MTQ,14.6415,-61.0242,375265
214,France,Mayotte,YT,MYT,-12.8275,45.166244,272813
215,France,New Caledonia,NC,NCL,-20.904305,165.618042,285491
216,France,,FR,FRA,46.2276,2.2137,65249843
217,France,Reunion,RE,REU,-21.1151,55.5364,895308
218,France,Saint Barthelemy,BL,BLM,17.9,-62.8333,9885
219,France,Saint Pierre and Miquelon,PM,SPM,46.8852,-56.3159,5795
220,France,St Martin,MF,MAF,18.0708,-63.0501,38659
221,France,Wallis and Futuna,WF,WLF,-14.2938,-178.1165,15289
222,Gabon,,GA,GAB,-0.8037,11.6094,2225728
223,Gambia,,GM,GMB,13.4432,-15.3101,2416664
224,Georgia,,GE,GEO,42.3154,43.3569,3989175
225,Germany,Baden-Wurttemberg,DE,DEU,48.6616,9.3501,11103043
226,Germany,Bayern,DE,DEU,48.7904,11.4979,13140183
227,Germany,Berlin,DE,DEU,52.52,13.405,3664088
228,Germany,Brandenburg,DE,DEU,52.4125,12.5316,2531071
229,Germany,Bremen,DE,DEU,53.0793,8.8017,680130
230,Germany,Hamburg,DE,DEU,53.5511,9.9937,1852478
231,Germany,Hessen,DE,DEU,50.6521,9.1624,6293154
232,Germany,Mecklenburg-Vorpommern,DE,DEU,53.6127,12.4296,1610774
233,Germany,Niedersachsen,DE,DEU,52.6367,9.8451,8003421
234,Germany,,DE,DEU,51.165691,10.451526,83155031
235,Germany,Nordrhein-Westfalen,DE,DEU,51.4332,7.6616,17925570
236,Germany,Rheinland-Pfalz,DE,DEU,50.1183,7.309,4098391
237,Germany,Saarland,DE,DEU,49.3964,7.023,983991
238,Germany,Sachsen,DE,DEU,51.1045,13.2017,4056941
239,Germany,Sachsen-Anhalt,DE,DEU,51.9503,11.6923,2180684
240,Germany,Schleswig-Holstein,DE,DEU,54.2194,9.6961,2910875
241,Germany,Thuringen,DE,DEU,51.011,10.8453,2120237
242,Ghana,,GH,GHA,7.9465,-1.0232,31072945
243,Greece,,GR,GRC,39.0742,21.8243,10423056
244,Grenada,,GD,GRD,12.1165,-61.679,112519
245,Guatemala,,GT,GTM,15.7835,-90.2308,17915567
246,Guinea,,GN,GIN,9.9456,-9.6966,13132792
247,Guinea-Bissau,,GW,GNB,11.8037,-15.1804,1967998
248,Guyana,,GY,GUY,4.860416,-58.93018,786559
249,Haiti,,HT,HTI,18.9712,-72.2852,11402533
250,Holy See,,VA,VAT,41.9029,12.4534,809
251,Honduras,,HN,HND,15.2,-86.2419,9904608
252,Hungary,,HU,HUN,47.1625,19.5033,9660350
253,Iceland,,IS,ISL,64.9631,-19.0208,341250
254,India,Andaman and Nicobar Islands,IN,IND,11.225999,92.968178,417036
255,India,Andhra Pradesh,IN,IND,15.9129,79.74,53903393
256,India,Arunachal Pradesh,IN,IND,27.768456,96.384277,1570458
257,India,Assam,IN,IND,26.357149,92.830441,35607039
258,India,Bihar,IN,IND,25.679658,85.60484,124799926
259,India,Chandigarh,IN,IND,30.733839,76.768278,1158473
260,India,Chhattisgarh,IN,IND,21.264705,82.035366,29436231
261,India,Dadra and Nagar Haveli and Daman and Diu,IN,IND,20.194742,73.080901,615724
262,India,Delhi,IN,IND,28.646519,77.10898,18710922
263,India,Goa,IN,IND,15.359682,74.057396,1586250
264,India,Gujarat,IN,IND,22.694884,71.590923,63872399
265,India,Haryana,IN,IND,29.20004,76.332824,28204692
266,India,Himachal Pradesh,IN,IND,31.927213,77.233081,7451955
267,India,Jammu and Kashmir,IN,IND,33.75943,76.612638,13606320
268,India,Jharkhand,IN,IND,23.654536,85.557631,38593948
269,India,Karnataka,IN,IND,14.70518,76.166436,67562686
270,India,Kerala,IN,IND,10.450898,76.405749,35699443
271,India,Ladakh,IN,IND,34.1526,77.5771,274289
272,India,Lakshadweep,IN,IND,13.6999972,72.1833326,64429
273,India,Madhya Pradesh,IN,IND,23.541513,78.289633,85358965
274,India,Maharashtra,IN,IND,19.449759,76.108221,123144223
275,India,Manipur,IN,IND,24.738975,93.882541,3091545
276,India,Meghalaya,IN,IND,25.536934,91.278882,3366710
277,India,Mizoram,IN,IND,23.309381,92.83822,1239244
278,India,Nagaland,IN,IND,26.06702,94.470302,2249695
279,India,,IN,IND,20.593684,78.96288,1380004385
280,India,Odisha,IN,IND,20.505428,84.418059,46356334
281,India,Puducherry,IN,IND,11.882658,78.86498,1413542
282,India,Punjab,IN,IND,30.841465,75.40879,30141373
283,India,Rajasthan,IN,IND,26.583423,73.847973,81032689
284,India,Sikkim,IN,IND,27.571671,88.472712,690251
285,India,Tamil Nadu,IN,IND,11.006091,78.400624,77841267
286,India,Telangana,IN,IND,18.1124,79.0193,39362732
287,India,Tripura,IN,IND,23.746783,91.743565,4169794
288,India,Uttar Pradesh,IN,IND,26.925425,80.560982,237882725
289,India,Uttarakhand,IN,IND,30.156447,79.197608,11250858
290,India,West Bengal,IN,IND,23.814082,87.979803,99609303
291,Indonesia,,ID,IDN,-0.7893,113.9213,273523621
292,Iran,,IR,IRN,32.427908,53.688046,83992953
293,Iraq,,IQ,IRQ,33.223191,43.679291,40222503
294,Ireland,,IE,IRL,53.1424,-7.6921,4937796
295,Israel,,IL,ISR,31.046051,34.851612,8655541
296,Italy,Abruzzo,IT,ITA,42.35122196,13.39843823,1311580
297,Italy,Basilicata,IT,ITA,40.63947052,15.80514834,562869
298,Italy,Calabria,IT,ITA,38.90597598,16.59440194,1947131
299,Italy,Campania,IT,ITA,40.83956555,14.25084984,5801692
300,Italy,Emilia-Romagna,IT,ITA,44.49436681,11.3417208,4459477
301,Italy,Friuli Venezia Giulia,IT,ITA,45.6494354,13.76813649,1215220
302,Italy,Lazio,IT,ITA,41.89277044,12.48366722,5879082
303,Italy,Liguria,IT,ITA,44.41149315,8.9326992,1550640
304,Italy,Lombardia,IT,ITA,45.46679409,9.190347404,10060574
305,Italy,Marche,IT,ITA,43.61675973,13.5188753,1525271
306,Italy,Molise,IT,ITA,41.55774754,14.65916051,305617
307,Italy,,IT,ITA,41.87194,12.56738,60461828
308,Italy,P.A. Bolzano,IT,ITA,46.49933453,11.35662422,532318
309,Italy,P.A. Trento,IT,ITA,46.06893511,11.12123097,541418
310,Italy,Piemonte,IT,ITA,45.0732745,7.680687483,4356406
311,Italy,Puglia,IT,ITA,41.12559576,16.86736689,4029053
312,Italy,Sardegna,IT,ITA,39.21531192,9.110616306,1639591
313,Italy,Sicilia,IT,ITA,38.11569725,13.3623567,4999891
314,Italy,Toscana,IT,ITA,43.76923077,11.25588885,3729641
315,Italy,Umbria,IT,ITA,43.10675841,12.38824698,882015
316,Italy,Valle d'Aosta,IT,ITA,45.73750286,7.320149366,125666
317,Italy,Veneto,IT,ITA,45.43490485,12.33845213,4905854
318,Jamaica,,JM,JAM,18.1096,-77.2975,2961161
319,Japan,Aichi,JP,JPN,35.035551,137.211621,7552239
320,Japan,Akita,JP,JPN,39.748679,140.408228,966490
321,Japan,Aomori,JP,JPN,40.781541,140.828896,1246371
322,Japan,Chiba,JP,JPN,35.510141,140.198917,6259382
323,Japan,Ehime,JP,JPN,33.624835,132.856842,1339215
324,Japan,Fukui,JP,JPN,35.846614,136.224654,767937
325,Japan,Fukuoka,JP,JPN,33.526032,130.666949,5103679
326,Japan,Fukushima,JP,JPN,37.378867,140.223295,1845519
327,Japan,Gifu,JP,JPN,35.778671,137.055925,1986587
328,Japan,Gunma,JP,JPN,36.504479,138.985605,1942456
329,Japan,Hiroshima,JP,JPN,34.605309,132.788719,2804177
330,Japan,Hokkaido,JP,JPN,43.385711,142.552318,5250049
331,Japan,Hyogo,JP,JPN,35.039913,134.828057,5466190
332,Japan,Ibaraki,JP,JPN,36.303588,140.319591,2860307
333,Japan,Ishikawa,JP,JPN,36.769464,136.771027,1137649
334,Japan,Iwate,JP,JPN,39.593287,141.361777,1226816
335,Japan,Kagawa,JP,JPN,34.217292,133.969047,956347
336,Japan,Kagoshima,JP,JPN,31.009484,130.430665,1602273
337,Japan,Kanagawa,JP,JPN,35.415312,139.338983,9198268
338,Japan,Kochi,JP,JPN,33.422519,133.367307,698029
339,Japan,Kumamoto,JP,JPN,32.608154,130.745231,1747567
340,Japan,Kyoto,JP,JPN,35.253815,135.443341,2582957
341,Japan,Mie,JP,JPN,34.508018,136.376013,1780882
342,Japan,Miyagi,JP,JPN,38.446859,140.927086,2306365
343,Japan,Miyazaki,JP,JPN,32.193204,131.299374,1073301
344,Japan,Nagano,JP,JPN,36.132134,138.045528,2048790
345,Japan,Nagasaki,JP,JPN,33.235712,129.608033,1326524
346,Japan,Nara,JP,JPN,34.317451,135.871644,1330123
347,Japan,Niigata,JP,JPN,37.521819,138.918647,2223106
348,Japan,,JP,JPN,36.204824,138.252924,126476458
349,Japan,Oita,JP,JPN,33.200697,131.43324,1135434
350,Japan,Okayama,JP,JPN,34.89246,133.826252,1889586
351,Japan,Okinawa,JP,JPN,25.768923,126.668016,1453168
352,Japan,Osaka,JP,JPN,34.620965,135.507481,8809363
353,Japan,Port Quarantine,JP,JPN,,,0
354,Japan,Saga,JP,JPN,33.286977,130.115738,814711
355,Japan,Saitama,JP,JPN,35.997101,139.347635,7349693
356,Japan,Shiga,JP,JPN,35.215827,136.138064,1413943
357,Japan,Shimane,JP,JPN,35.07076,132.554064,674346
358,Japan,Shizuoka,JP,JPN,34.916975,138.407784,3643528
359,Japan,Tochigi,JP,JPN,36.689912,139.819213,1933990
360,Japan,Tokushima,JP,JPN,33.919178,134.242091,727977
361,Japan,Tokyo,JP,JPN,35.711343,139.446921,13920663
362,Japan,Tottori,JP,JPN,35.359069,133.863619,555558
363,Japan,Toyama,JP,JPN,36.637464,137.269346,1043502
364,Japan,Wakayama,JP,JPN,33.911879,135.505446,924933
365,Japan,Yamagata,JP,JPN,38.448396,140.102154,1077666
366,Japan,Yamaguchi,JP,JPN,34.20119,131.573293,1358336
367,Japan,Yamanashi,JP,JPN,35.612364,138.611489,810956
368,Jordan,,JO,JOR,31.24,36.51,10203140
369,Kazakhstan,,KZ,KAZ,48.0196,66.9237,18776707
370,Kenya,,KE,KEN,-0.0236,37.9062,53771300
371,Kiribati,,KI,KIR,-3.3704,-168.734,117606
372,"Korea, North",,KP,PRK,40.3399,127.5101,25778815
373,"Korea, South",,KR,KOR,35.907757,127.766922,51269183
374,Kosovo,,XK,XKS,42.602636,20.902977,1810366
375,Kuwait,,KW,KWT,29.31166,47.481766,4270563
376,Kyrgyzstan,,KG,KGZ,41.20438,74.766098,6524191
377,Laos,,LA,LAO,19.85627,102.495496,7275556
378,Latvia,,LV,LVA,56.8796,24.6032,1886202
379,Lebanon,,LB,LBN,33.8547,35.8623,6825442
380,Lesotho,,LS,LSO,-29.61,28.2336,2142252
381,Liberia,,LR,LBR,6.428055,-9.429499,5057677
382,Libya,,LY,LBY,26.3351,17.228331,6871287
383,Liechtenstein,,LI,LIE,47.14,9.55,38137
384,Lithuania,,LT,LTU,55.1694,23.8813,2722291
385,Luxembourg,,LU,LUX,49.8153,6.1296,625976
386,MS Zaandam,,,,,,0
387,Madagascar,,MG,MDG,-18.766947,46.869107,27691019
388,Malawi,,MW,MWI,-13.2543,34.3015,19129955
389,Malaysia,Johor,MY,MYS,1.4854,103.7618,3768200
390,Malaysia,Kedah,MY,MYS,6.1184,100.3685,2185900
391,Malaysia,Kelantan,MY,MYS,6.1254,102.2381,1892200
392,Malaysia,Melaka,MY,MYS,2.1896,102.2501,932700
393,Malaysia,Negeri Sembilan,MY,MYS,2.7258,101.9424,1132100
394,Malaysia,,MY,MYS,4.210484,101.975766,32365998
395,Malaysia,Pahang,MY,MYS,3.8126,103.3256,1677100
396,Malaysia,Perak,MY,MYS,4.5921,101.0901,2514300
397,Malaysia,Perlis,MY,MYS,6.4449,100.2048,254600
398,Malaysia,Pulau Pinang,MY,MYS,5.4141,100.3288,1777600
399,Malaysia,Sabah,MY,MYS,5.9788,116.0753,3904700
400,Malaysia,Sarawak,MY,MYS,1.5533,110.3592,2818100
401,Malaysia,Selangor,MY,MYS,3.0738,101.5183,6541900
402,Malaysia,Terengganu,MY,MYS,5.3117,103.1324,1250100
403,Malaysia,W.P. Kuala Lumpur,MY,MYS,3.139,101.6869,1778400
404,Malaysia,W.P. Labuan,MY,MYS,5.2831,115.2308,99400
405,Malaysia,W.P. Putrajaya,MY,MYS,2.9264,101.6964,105400
406,Maldives,,MV,MDV,3.2028,73.2207,540542
407,Mali,,ML,MLI,17.570692,-3.996166,20250834
408,Malta,,MT,MLT,35.9375,14.3754,441539
409,Marshall Islands,,MH,MHL,7.1315,171.1845,58413
410,Mauritania,,MR,MRT,21.0079,-10.9408,4649660
411,Mauritius,,MU,MUS,-20.348404,57.552152,1271767
412,Mexico,Aguascalientes,MX,MEX,21.8853,-102.2916,1434635
413,Mexico,Baja California,MX,MEX,30.8406,-115.2838,3634868
414,Mexico,Baja California Sur,MX,MEX,26.0444,-111.6661,804708
415,Mexico,Campeche,MX,MEX,19.8301,-90.5349,1000617
416,Mexico,Chiapas,MX,MEX,16.7569,-93.1292,5730367
417,Mexico,Chihuahua,MX,MEX,28.633,-106.0691,3801487
418,Mexico,Ciudad de Mexico,MX,MEX,19.4326,-99.1332,9018645
419,Mexico,Coahuila,MX,MEX,27.0587,-101.7068,3218720
420,Mexico,Colima,MX,MEX,19.1223,-104.0072,785153
421,Mexico,Durango,MX,MEX,24.5593,-104.6588,1868996
422,Mexico,Guanajuato,MX,MEX,21.019,-101.2574,6228175
423,Mexico,Guerrero,MX,MEX,17.4392,-99.5451,3657048
424,Mexico,Hidalgo,MX,MEX,20.0911,-98.7624,3086414
425,Mexico,Jalisco,MX,MEX,20.6595,-103.3494,8409693
426,Mexico,Mexico,MX,MEX,19.4969,-99.7233,17427790
427,Mexico,Michoacan,MX,MEX,19.5665,-101.7068,4825401
428,Mexico,Morelos,MX,MEX,18.6813,-99.1013,2044058
429,Mexico,Nayarit,MX,MEX,21.7514,-104.8455,1288571
430,Mexico,,MX,MEX,23.6345,-102.5528,127792286
431,Mexico,Nuevo Leon,MX,MEX,25.5922,-99.9962,5610153
432,Mexico,Oaxaca,MX,MEX,17.0732,-96.7266,4143593
433,Mexico,Puebla,MX,MEX,19.0414,-98.2063,6604451
434,Mexico,Queretaro,MX,MEX,20.5888,-100.3899,2279637
435,Mexico,Quintana Roo,MX,MEX,19.1817,-88.4791,1723259
436,Mexico,San Luis Potosi,MX,MEX,22.1565,-100.9855,2866142
437,Mexico,Sinaloa,MX,MEX,25.1721,-107.4795,3156674
438,Mexico,Sonora,MX,MEX,29.2972,-110.3309,3074745
439,Mexico,Tabasco,MX,MEX,17.8409,-92.6189,2572287
440,Mexico,Tamaulipas,MX,MEX,24.2669,-98.8363,3650602
441,Mexico,Tlaxcala,MX,MEX,19.3139,-98.2404,1380011
442,Mexico,Veracruz,MX,MEX,19.1738,-96.1342,8539862
443,Mexico,Yucatan,MX,MEX,20.7099,-89.0943,2259098
444,Mexico,Zacatecas,MX,MEX,22.7709,-102.5832,1666426
445,Micronesia,,FM,FSM,7.4256,150.5508,113815
446,Moldova,Anenii Noi,MD,MDA,46.8833,29.2167,81710
447,Moldova,Balti,MD,MDA,47.754,27.9184,127561
448,Moldova,Basarabeasca,MD,MDA,46.3333,28.9667,28978
449,Moldova,Bender,MD,MDA,46.8228,29.462,91197
450,Moldova,Briceni,MD,MDA,48.36,27.0858,78027
451,Moldova,Cahul,MD,MDA,45.9167,28.1833,119231
452,Moldova,Calarasi,MD,MDA,47.25,28.3,75075
453,Moldova,Camenca,MD,MDA,48.0319,28.6978,8871
454,Moldova,Cantemir,MD,MDA,46.2854,28.1979,60001
455,Moldova,Causeni,MD,MDA,46.6333,29.4,90612
456,Moldova,Ceadir-Lunga,MD,MDA,46.057,28.826,16605
457,Moldova,Chisinau,MD,MDA,47.0105,28.8638,712218
458,Moldova,Cimislia,MD,MDA,46.5289,28.7838,60925
459,Moldova,Comrat,MD,MDA,46.2956,28.6549,72254
460,Moldova,Criuleni,MD,MDA,47.212,29.1617,46442
461,Moldova,Donduseni,MD,MDA,48.2372,27.6104,87092
462,Moldova,Drochia,MD,MDA,48.0333,27.75,43015
463,Moldova,Dubasari,MD,MDA,47.267,29.167,28500
464,Moldova,Edinet,MD,MDA,48.1667,27.3167,90320
465,Moldova,Falesti,MD,MDA,47.5,27.72,89389
466,Moldova,Floresti,MD,MDA,47.8933,28.3014,155646
467,Moldova,Glodeni,MD,MDA,47.7667,27.5167,119762
468,Moldova,Grigoriopol,MD,MDA,47.1536,29.2964,9381
469,Moldova,Hincesti,MD,MDA,46.8167,28.5833,97704
470,Moldova,Ialoveni,MD,MDA,46.9439,28.7772,51056
471,Moldova,Leova,MD,MDA,46.4806,28.2644,64924
472,Moldova,Nisporeni,MD,MDA,47.0833,28.1833,56510
473,Moldova,,MD,MDA,47.4116,28.3699,4027690
474,Moldova,Ocnita,MD,MDA,48.4061,27.4859,116271
475,Moldova,Orhei,MD,MDA,47.3735,28.822,48105
476,Moldova,Rezina,MD,MDA,47.7333,28.95,69454
477,Moldova,Ribnita,MD,MDA,47.7667,29.0,47949
478,Moldova,Riscani,MD,MDA,47.9679,27.5565,87153
479,Moldova,Singerei,MD,MDA,47.6333,28.15,42227
480,Moldova,Slobozia,MD,MDA,46.7333,29.7,14618
481,Moldova,Soldanesti,MD,MDA,47.8167,28.8,94986
482,Moldova,Soroca,MD,MDA,48.1618,28.3011,70594
483,Moldova,Stefan Voda,MD,MDA,46.5153,29.5297,88900
484,Moldova,Straseni,MD,MDA,47.1333,28.6167,43154
485,Moldova,Taraclia,MD,MDA,45.9,28.6667,70126
486,Moldova,Telenesti,MD,MDA,47.5032,28.3535,383806
487,Moldova,Tiraspol,MD,MDA,46.85,29.6333,133807
488,Moldova,Transnistria,MD,MDA,47.2153,29.463,110545
489,Moldova,Ungheni,MD,MDA,47.2077,27.8073,30804
490,Moldova,Vulcanesti,MD,MDA,45.6833,28.4042,12185
491,Monaco,,MC,MCO,43.7333,7.4167,39244
492,Mongolia,,MN,MNG,46.8625,103.8467,3278292
493,Montenegro,,ME,MNE,42.708678,19.37439,628062
494,Morocco,,MA,MAR,31.7917,-7.0926,36910558
495,Mozambique,,MZ,MOZ,-18.665695,35.529562,31255435
496,Namibia,,,NAM,-22.9576,18.4904,2540916
497,Nauru,,NR,NRU,-0.5228,166.9315,10834
498,Nepal,,NP,NPL,28.1667,84.25,29136808
499,Netherlands,Aruba,AW,ABW,12.5211,-69.9683,106766
500,Netherlands,"Bonaire, Sint Eustatius and Saba",BQ,BES,12.1784,-68.2385,26221
501,Netherlands,Curacao,CW,CUW,12.1696,-68.99,164100
502,Netherlands,Drenthe,NL,NLD,52.862485,6.618435,493682
503,Netherlands,Flevoland,NL,NLD,52.550383,5.515162,423021
504,Netherlands,Friesland,NL,NLD,53.087337,5.7925,649957
505,Netherlands,Gelderland,NL,NLD,52.061738,5.939114,2085952
506,Netherlands,Groningen,NL,NLD,53.217922,6.741514,585866
507,Netherlands,Limburg,NL,NLD,51.209227,5.93387,1117201
508,Netherlands,,NL,NLD,52.1326,5.2913,17134873
509,Netherlands,Noord-Brabant,NL,NLD,51.561174,5.184942,2562955
510,Netherlands,Noord-Holland,NL,NLD,52.600906,4.918688,2879527
511,Netherlands,Overijssel,NL,NLD,52.444558,6.441722,1162406
512,Netherlands,Sint Maarten,SX,SXM,18.0425,-63.0548,42882
513,Netherlands,Utrecht,NL,NLD,52.084251,5.163824,1354834
514,Netherlands,Zeeland,NL,NLD,51.47936,3.861559,383488
515,Netherlands,Zuid-Holland,NL,NLD,51.937835,4.462114,3708696
516,New Zealand,Cook Islands,CK,COK,-21.2367,-159.7777,17459
517,New Zealand,Niue,NU,NIU,-19.0544,-169.8672,1650
518,New Zealand,,NZ,NZL,-40.9006,174.886,4822233
519,Nicaragua,,NI,NIC,12.865416,-85.207229,6624554
520,Niger,,NE,NER,17.607789,8.081666,24206636
521,Nigeria,Abia,NG,NGA,5.4527,7.5248,3727347
522,Nigeria,Adamawa,NG,NGA,9.3265,12.3984,4248436
523,Nigeria,Akwa Ibom,NG,NGA,4.9057,7.8537,5482177
524,Nigeria,Anambra,NG,NGA,6.2209,6.937,5527809
525,Nigeria,Bauchi,NG,NGA,10.7761,9.9992,6537314
526,Nigeria,Bayelsa,NG,NGA,4.7719,6.0699,2277961
527,Nigeria,Benue,NG,NGA,7.3369,8.7404,5741815
528,Nigeria,Borno,NG,NGA,11.8846,13.152,5860183
529,Nigeria,Cross River,NG,NGA,5.8702,8.5988,3866269
530,Nigeria,Delta,NG,NGA,5.704,5.9339,5663362
531,Nigeria,Ebonyi,NG,NGA,6.2649,8.0137,2880383
532,Nigeria,Edo,NG,NGA,6.6342,5.9304,4235595
533,Nigeria,Ekiti,NG,NGA,7.719,5.311,3270798
534,Nigeria,Enugu,NG,NGA,6.5364,7.4356,4411119
535,Nigeria,Federal Capital Territory,NG,NGA,8.8941,7.186,3564126
536,Nigeria,Gombe,NG,NGA,10.3638,11.1928,3256962
537,Nigeria,Imo,NG,NGA,5.572,7.0588,5408756
538,Nigeria,Jigawa,NG,NGA,12.228,9.5616,5828163
539,Nigeria,Kaduna,NG,NGA,10.3764,7.7095,8252366
540,Nigeria,Kano,NG,NGA,11.7471,8.5247,13076892
541,Nigeria,Katsina,NG,NGA,12.3797,7.6306,7831319
542,Nigeria,Kebbi,NG,NGA,11.4942,4.2333,4440050
543,Nigeria,Kogi,NG,NGA,7.7337,6.6906,4473490
544,Nigeria,Kwara,NG,NGA,8.9669,4.3874,3192893
545,Nigeria,Lagos,NG,NGA,6.5236,3.6006,12550598
546,Nigeria,Nasarawa,NG,NGA,8.4998,8.1997,2523395
547,Nigeria,Niger,NG,NGA,9.9309,5.5983,5556247
548,Nigeria,,NG,NGA,9.082,8.6753,206139587
549,Nigeria,Ogun,NG,NGA,6.998,3.4737,5217716
550,Nigeria,Ondo,NG,NGA,6.9149,5.1478,4671695
551,Nigeria,Osun,NG,NGA,7.5629,4.52,4705589
552,Nigeria,Oyo,NG,NGA,8.1574,3.6147,7840864
553,Nigeria,Plateau,NG,NGA,9.2182,9.5179,4200442
554,Nigeria,Rivers,NG,NGA,4.8396,6.9112,7303924
555,Nigeria,Sokoto,NG,NGA,13.0533,5.3223,4998090
556,Nigeria,Taraba,NG,NGA,7.9994,10.774,3066834
557,Nigeria,Yobe,NG,NGA,12.2939,11.439,3294137
558,Nigeria,Zamfara,NG,NGA,12.1222,6.2236,4515427
559,North Macedonia,,MK,MKD,41.6086,21.7453,2083380
560,Norway,,NO,NOR,60.472,8.4689,5421242
561,Oman,,OM,OMN,21.512583,55.923255,5106622
562,Pakistan,Azad Jammu and Kashmir,PK,PAK,34.027401,73.947253,4045366
563,Pakistan,Balochistan,PK,PAK,28.328492,65.898403,12344408
564,Pakistan,Gilgit-Baltistan,PK,PAK,35.792146,74.982138,1013584
565,Pakistan,Islamabad,PK,PAK,33.665087,73.121219,2006572
566,Pakistan,Khyber Pakhtunkhwa,PK,PAK,34.485332,72.09169,30523371
567,Pakistan,,PK,PAK,30.3753,69.3451,220892331
568,Pakistan,Punjab,PK,PAK,30.811346,72.139132,110012442
569,Pakistan,Sindh,PK,PAK,26.009446,68.776807,47886051
570,Palau,,PW,PLW,7.515,134.5825,18008
571,Panama,,PA,PAN,8.538,-80.7821,4314768
572,Papua New Guinea,,PG,PNG,-6.314993,143.95555,8947027
573,Paraguay,,PY,PRY,-23.4425,-58.4438,7132530
574,Peru,Amazonas,PE,PER,-5.077253,-78.050172,426800
575,Peru,Ancash,PE,PER,-9.407125,-77.671795,1180600
576,Peru,Apurimac,PE,PER,-14.027713,-72.975378,430700
577,Peru,Arequipa,PE,PER,-15.843524,-72.475539,1497400
578,Peru,Ayacucho,PE,PER,-14.091648,-74.08344,668200
579,Peru,Cajamarca,PE,PER,-6.430284,-78.745596,1453700
580,Peru,Callao,PE,PER,-11.954609,-77.136042,1129900
581,Peru,Cusco,PE,PER,-13.191068,-72.153609,1357100
582,Peru,Huancavelica,PE,PER,-13.023888,-75.00277,365300
583,Peru,Huanuco,PE,PER,-9.421676,-76.040642,760300
584,Peru,Ica,PE,PER,-14.235097,-75.574821,975200
585,Peru,Junin,PE,PER,-11.541783,-74.876968,1361500
586,Peru,La Libertad,PE,PER,-7.92139,-78.370238,2016800
587,Peru,Lambayeque,PE,PER,-6.353049,-79.824113,1310800
588,Peru,Lima,PE,PER,-11.766533,-76.604498,10628500
589,Peru,Loreto,PE,PER,-4.124847,-74.424115,1027600
590,Peru,Madre de Dios,PE,PER,-11.972699,-70.53172,173800
591,Peru,Moquegua,PE,PER,-16.860271,-70.839046,192700
592,Peru,,PE,PER,-9.19,-75.0152,32971846
593,Peru,Pasco,PE,PER,-10.39655,-75.307635,271900
594,Peru,Piura,PE,PER,-5.133361,-80.335861,2048000
595,Peru,Puno,PE,PER,-14.995827,-69.922726,1238000
596,Peru,San Martin,PE,PER,-7.039531,-76.729127,899600
597,Peru,Tacna,PE,PER,-17.644161,-70.27756,371000
598,Peru,Tumbes,PE,PER,-3.857496,-80.545255,251500
599,Peru,Ucayali,PE,PER,-9.621718,-73.444929,589100
600,Philippines,,PH,PHL,12.879721,121.774017,109581085
601,Poland,Dolnoslaskie,PL,POL,51.134,16.8842,2901225
602,Poland,Kujawsko-pomorskie,PL,POL,53.1648,18.4834,2077775
603,Poland,Lodzkie,PL,POL,51.4635,19.1727,2466322
604,Poland,Lubelskie,PL,POL,51.2494,23.1011,2117619
605,Poland,Lubuskie,PL,POL,52.2275,15.2559,1014548
606,Poland,Malopolskie,PL,POL,49.7225,20.2503,3400577
607,Poland,Mazowieckie,PL,POL,51.8927,21.0022,5403412
608,Poland,,PL,POL,51.9194,19.1451,37846605
609,Poland,Opolskie,PL,POL,50.8004,17.938,986506
610,Poland,Podkarpackie,PL,POL,50.0575,22.0896,2129015
611,Poland,Podlaskie,PL,POL,53.0697,22.9675,1181533
612,Poland,Pomorskie,PL,POL,54.2944,18.1531,2333523
613,Poland,Slaskie,PL,POL,50.5717,19.322,4533565
614,Poland,Swietokrzyskie,PL,POL,50.6261,20.9406,1241546
615,Poland,Warminsko-mazurskie,PL,POL,53.8671,20.7028,1428983
616,Poland,Wielkopolskie,PL,POL,52.28,17.3523,3493969
617,Poland,Zachodniopomorskie,PL,POL,53.4658,15.1823,1701030
618,Portugal,,PT,PRT,39.3999,-8.2245,10196707
619,Qatar,,QA,QAT,25.3548,51.1839,2881060
620,Romania,Alba,RO,ROU,46.1559,23.5556,74000
621,Romania,Arad,RO,ROU,46.176,21.319,409072
622,Romania,Arges,RO,ROU,45.0723,24.8143,612431
623,Romania,Bacau,RO,ROU,46.5833,26.9167,616168
624,Romania,Bihor,RO,ROU,47.0158,22.1723,575398
625,Romania,Bistrita-Nasaud,RO,ROU,47.2486,24.5323,277861
626,Romania,Botosani,RO,ROU,47.745,26.6621,412626
627,Romania,Braila,RO,ROU,45.271,27.9743,304925
628,Romania,Brasov,RO,ROU,45.6667,25.6167,549217
629,Romania,Bucuresti,RO,ROU,44.4268,26.1025,1883425
630,Romania,Buzau,RO,ROU,45.1667,26.8167,432054
631,Romania,Calarasi,RO,ROU,44.2085,27.3137,285050
632,Romania,Caras-Severin,RO,ROU,45.114,22.0741,274277
633,Romania,Cluj,RO,ROU,46.7667,23.5833,691106
634,Romania,Constanta,RO,ROU,44.1773,28.6529,684082
635,Romania,Covasna,RO,ROU,45.8446,26.1687,210177
636,Romania,Dambovita,RO,ROU,44.929,25.4254,518745
637,Romania,Dolj,RO,ROU,44.1623,23.6325,660544
638,Romania,Galati,RO,ROU,45.4382,28.0563,536167
639,Romania,Giurgiu,RO,ROU,43.9008,25.9739,265494
640,Romania,Gorj,RO,ROU,44.9486,23.2427,334238
641,Romania,Harghita,RO,ROU,46.4929,25.6457,304969
642,Romania,Hunedoara,RO,ROU,45.7697,22.9203,396253
643,Romania,Ialomita,RO,ROU,44.6031,27.379,258669
644,Romania,Iasi,RO,ROU,47.1598,27.5872,772348
645,Romania,Ilfov,RO,ROU,44.5355,26.2325,388738
646,Romania,Maramures,RO,ROU,47.6738,23.7456,516562
647,Romania,Mehedinti,RO,ROU,44.5515,22.9044,254570
648,Romania,Mures,RO,ROU,46.557,24.6723,550846
649,Romania,Neamt,RO,ROU,46.9759,26.3819,470766
650,Romania,,RO,ROU,45.9432,24.9668,19237682
651,Romania,Olt,RO,ROU,44.2008,24.5023,415530
652,Romania,Prahova,RO,ROU,45.0892,26.0829,762886
653,Romania,Salaj,RO,ROU,47.2091,23.2122,224384
654,Romania,Satu Mare,RO,ROU,47.79,22.89,329079
655,Romania,Sibiu,RO,ROU,45.7969,24.15,375992
656,Romania,Suceava,RO,ROU,47.6514,26.2556,634810
657,Romania,Teleorman,RO,ROU,44.016,25.2987,360178
658,Romania,Timis,RO,ROU,45.8139,21.3331,683540
659,Romania,Tulcea,RO,ROU,45.1767,28.8052,201462
660,Romania,Valcea,RO,ROU,45.0798,24.0835,355320
661,Romania,Vaslui,RO,ROU,46.6381,27.7288,395500
662,Romania,Vrancea,RO,ROU,45.8135,27.0658,340310
663,Russia,Adygea Republic,RU,RUS,44.6939006,40.1520421,453376
664,Russia,Altai Krai,RU,RUS,52.6932243,82.6931424,2350080
665,Russia,Altai Republic,RU,RUS,50.7114101,86.8572186,218063
666,Russia,Amur Oblast,RU,RUS,52.8032368,128.437295,798424
667,Russia,Arkhangelsk Oblast,RU,RUS,63.5589686,43.1221646,1155028
668,Russia,Astrakhan Oblast,RU,RUS,47.1878186,47.608851,1017514
669,Russia,Bashkortostan Republic,RU,RUS,54.8573563,57.1439682,4063293
670,Russia,Belgorod Oblast,RU,RUS,50.7080119,37.5837615,1549876
671,Russia,Bryansk Oblast,RU,RUS,52.8873315,33.415853,1210982
672,Russia,Buryatia Republic,RU,RUS,52.7182426,109.492143,984511
673,Russia,Chechen Republic,RU,RUS,43.3976147,45.6985005,1436981
674,Russia,Chelyabinsk Oblast,RU,RUS,54.4223954,61.1865846,3493036
675,Russia,Chukotka Autonomous Okrug,RU,RUS,66.0006475,169.4900869,49348
676,Russia,Chuvashia Republic,RU,RUS,55.4259922,47.0849429,1231117
677,Russia,Dagestan Republic,RU,RUS,43.0574916,47.1332224,3063885
678,Russia,Ingushetia Republic,RU,RUS,43.11542075,45.01713552,488043
679,Russia,Irkutsk Oblast,RU,RUS,56.6370122,104.719221,2404195
680,Russia,Ivanovo Oblast,RU,RUS,56.9167446,41.4352137,1014646
681,Russia,Jewish Autonomous Okrug,RU,RUS,48.57527615,132.6630746,162014
682,Russia,Kabardino-Balkarian Republic,RU,RUS,43.4806048,43.5978976,865828
683,Russia,Kaliningrad Oblast,RU,RUS,54.7293041,21.1489473,994599
684,Russia,Kalmykia Republic,RU,RUS,46.2313018,45.3275745,275413
685,Russia,Kaluga Oblast,RU,RUS,54.4382773,35.5272854,1012056
686,Russia,Kamchatka Krai,RU,RUS,57.1914882,160.0383819,315557
687,Russia,Karachay-Cherkess Republic,RU,RUS,43.7368326,41.7267991,466305
688,Russia,Karelia Republic,RU,RUS,62.6194031,33.4920267,622484
689,Russia,Kemerovo Oblast,RU,RUS,54.5335781,87.342861,2694877
690,Russia,Khabarovsk Krai,RU,RUS,51.6312684,136.121524,1328302
691,Russia,Khakassia Republic,RU,RUS,53.72258845,91.44293627,537513
692,Russia,Khanty-Mansi Autonomous Okrug,RU,RUS,61.0259025,69.0982628,1532243
693,Russia,Kirov Oblast,RU,RUS,57.9665589,49.4074599,1283238
694,Russia,Komi Republic,RU,RUS,63.9881421,54.3326073,840873
695,Russia,Kostroma Oblast,RU,RUS,58.424756,44.2533273,643324
696,Russia,Krasnodar Krai,RU,RUS,45.7684014,39.0261044,5603420
697,Russia,Krasnoyarsk Krai,RU,RUS,63.3233807,97.0979974,2876497
698,Russia,Kurgan Oblast,RU,RUS,55.7655302,64.5632681,845537
699,Russia,Kursk Oblast,RU,RUS,51.6568453,36.4852695,1115237
700,Russia,Leningrad Oblast,RU,RUS,60.1853296,32.3925325,1813816
701,Russia,Lipetsk Oblast,RU,RUS,52.6935178,39.1122664,1150201
702,Russia,Magadan Oblast,RU,RUS,62.48858785,153.9903764,144091
703,Russia,Mari El Republic,RU,RUS,56.5767504,47.8817512,682333
704,Russia,Mordovia Republic,RU,RUS,54.4419829,44.4661144,805056
705,Russia,Moscow,RU,RUS,55.7504461,37.6174943,12506468
706,Russia,Moscow Oblast,RU,RUS,55.5043158,38.0353929,7503385
707,Russia,Murmansk Oblast,RU,RUS,68.0000418,33.9999151,753557
708,Russia,Nenets Autonomous Okrug,RU,RUS,68.27557185,57.1686375,43997
709,Russia,Nizhny Novgorod Oblast,RU,RUS,55.4718033,44.0911594,3234752
710,Russia,,RU,RUS,61.52401,105.318756,145934460
711,Russia,North Ossetia - Alania Republic,RU,RUS,42.7933611,44.6324493,701765
712,Russia,Novgorod Oblast,RU,RUS,58.2843833,32.5169757,606476
713,Russia,Novosibirsk Oblast,RU,RUS,54.9720169,79.4813924,2788849
714,Russia,Omsk Oblast,RU,RUS,56.0935263,73.5099936,1960081
715,Russia,Orel Oblast,RU,RUS,52.9685433,36.0692477,747247
716,Russia,Orenburg Oblast,RU,RUS,52.0269262,54.7276647,1977720
717,Russia,Penza Oblast,RU,RUS,53.1655415,44.7879181,1331655
718,Russia,Perm Krai,RU,RUS,58.5951603,56.3159546,2623122
719,Russia,Primorsky Krai,RU,RUS,45.0819456,134.726645,1913037
720,Russia,Pskov Oblast,RU,RUS,57.5358729,28.8586826,636546
721,Russia,Rostov Oblast,RU,RUS,47.6222451,40.7957942,4220452
722,Russia,Ryazan Oblast,RU,RUS,54.4226732,40.5705246,1121474
723,Russia,Saint Petersburg,RU,RUS,59.9606739,30.1586551,5351935
724,Russia,Sakha (Yakutiya) Republic,RU,RUS,66.941626,129.642371,964330
725,Russia,Sakhalin Oblast,RU,RUS,49.7219665,143.448533,490181
726,Russia,Samara Oblast,RU,RUS,53.2128813,50.8914633,3193514
727,Russia,Saratov Oblast,RU,RUS,51.6520555,46.8631952,2462950
728,Russia,Smolensk Oblast,RU,RUS,55.0343496,33.0192065,949348
729,Russia,Stavropol Krai,RU,RUS,44.8632577,43.4406913,2800674
730,Russia,Sverdlovsk Oblast,RU,RUS,58.6414755,61.8021546,4325256
731,Russia,Tambov Oblast,RU,RUS,52.9019574,41.3578918,1033552
732,Russia,Tatarstan Republic,RU,RUS,55.7648572,52.43104273,3894284
733,Russia,Tomsk Oblast,RU,RUS,58.6124279,82.0475315,1078280
734,Russia,Tula Oblast,RU,RUS,53.9570701,37.3690909,1491855
735,Russia,Tver Oblast,RU,RUS,57.1134475,35.1744428,1283873
736,Russia,Tyumen Oblast,RU,RUS,58.8206488,70.3658837,3692400
737,Russia,Tyva Republic,RU,RUS,51.4017149,93.8582593,321722
738,Russia,Udmurt Republic,RU,RUS,57.1961165,52.6959832,1513044
739,Russia,Ulyanovsk Oblast,RU,RUS,54.1463177,47.2324921,1246618
740,Russia,Vladimir Oblast,RU,RUS,56.0503336,40.6561633,1378337
741,Russia,Volgograd Oblast,RU,RUS,49.6048339,44.2903582,2521276
742,Russia,Vologda Oblast,RU,RUS,60.0391461,43.1215213,1176689
743,Russia,Voronezh Oblast,RU,RUS,50.9800393,40.1506507,2333768
744,Russia,Yamalo-Nenets Autonomous Okrug,RU,RUS,67.1471631,74.3415488,538547
745,Russia,Yaroslavl Oblast,RU,RUS,57.7781976,39.0021095,1265684
746,Russia,Zabaykalsky Krai,RU,RUS,52.248521,115.956325,1072806
747,Rwanda,,RW,RWA,-1.9403,29.8739,12952209
748,Saint Kitts and Nevis,,KN,KNA,17.357822,-62.782998,53192
749,Saint Lucia,,LC,LCA,13.9094,-60.9789,183629
750,Saint Vincent and the Grenadines,,VC,VCT,12.9843,-61.2872,110947
751,Samoa,,WS,WSM,-13.759,-172.1046,196130
752,San Marino,,SM,SMR,43.9424,12.4578,33938
753,Sao Tome and Principe,,ST,STP,0.1864,6.6131,219161
754,Saudi Arabia,,SA,SAU,23.885942,45.079162,34813867
755,Senegal,,SN,SEN,14.4974,-14.4524,16743930
756,Serbia,,RS,SRB,44.0165,21.0059,8737370
757,Seychelles,,SC,SYC,-4.6796,55.492,98340
758,Sierra Leone,,SL,SLE,8.460555,-11.779889,7976985
759,Singapore,,SG,SGP,1.2833,103.8333,5850343
760,Slovakia,Banska Bystrica,SK,SVK,48.7363,19.1462,657119
761,Slovakia,Bratislava,SK,SVK,48.1486,17.107,603699
762,Slovakia,Kosice,SK,SVK,48.7164,21.2611,771947
763,Slovakia,Nitra,SK,SVK,48.3061,18.0764,708498
764,Slovakia,,SK,SVK,48.669,19.699,5434712
765,Slovakia,Presov,SK,SVK,49.0018,21.2393,798596
766,Slovakia,Trencin,SK,SVK,48.8849,18.0335,600386
767,Slovakia,Trnava,SK,SVK,48.3709,17.5833,554172
768,Slovakia,Zilina,SK,SVK,49.2194,18.7408,694763
769,Slovenia,,SI,SVN,46.1512,14.9955,2078932
770,Solomon Islands,,SB,SLB,-9.6457,160.1562,652858
771,Somalia,,SO,SOM,5.152149,46.199616,15893219
772,South Africa,,ZA,ZAF,-30.5595,22.9375,59308690
773,South Sudan,,SS,SSD,6.877,31.307,11193729
774,Spain,Andalusia,ES,ESP,37.5443,-4.7278,8427405
775,Spain,Aragon,ES,ESP,41.5976,-0.9057,1320586
776,Spain,Asturias,ES,ESP,43.3614,-5.8593,1022205
777,Spain,Baleares,ES,ESP,39.710358,2.995148,1188220
778,Spain,C. Valenciana,ES,ESP,39.484,-0.7533,4974969
779,Spain,Canarias,ES,ESP,28.2916,-16.6291,2206901
780,Spain,Cantabria,ES,ESP,43.1828,-3.9878,581641
781,Spain,Castilla - La Mancha,ES,ESP,39.2796,-3.0977,2034877
782,Spain,Castilla y Leon,ES,ESP,41.8357,-4.3976,2407733
783,Spain,Catalonia,ES,ESP,41.5912,1.5209,7566431
784,Spain,Ceuta,ES,ESP,35.8894,-5.3213,84829
785,Spain,Extremadura,ES,ESP,39.4937,-6.0679,1065424
786,Spain,Galicia,ES,ESP,42.5751,-8.1339,2700441
787,Spain,La Rioja,ES,ESP,42.2871,-2.5396,313571
788,Spain,Madrid,ES,ESP,40.4168,-3.7038,6641649
789,Spain,Melilla,ES,ESP,35.2923,-2.9381,84689
790,Spain,Murcia,ES,ESP,37.9922,-1.1307,1487663
791,Spain,Navarra,ES,ESP,42.6954,-1.6761,649946
792,Spain,,ES,ESP,40.463667,-3.74922,46754783
793,Spain,Pais Vasco,ES,ESP,42.9896,-2.6189,2177880
794,Sri Lanka,,LK,LKA,7.873054,80.771797,21413250
795,Sudan,,SD,SDN,12.8628,30.2176,43849269
796,Summer Olympics 2020,,,,35.6491,139.7737,0
797,Suriname,,SR,SUR,3.9193,-56.0278,586634
798,Sweden,Blekinge,SE,SWE,56.2784,15.018,159606
799,Sweden,Dalarna,SE,SWE,61.0917,14.6664,287966
800,Sweden,Gavleborg,SE,SWE,61.3012,16.1534,287382
801,Sweden,Gotland,SE,SWE,57.4684,18.4867,59686
802,Sweden,Halland,SE,SWE,56.8967,12.8034,333848
803,Sweden,Jamtland Harjedalen,SE,SWE,63.1712,14.9592,130810
804,Sweden,Jonkoping,SE,SWE,57.3708,14.3439,363599
805,Sweden,Kalmar,SE,SWE,57.235,16.1849,245446
806,Sweden,Kronoberg,SE,SWE,56.7183,14.4115,201469
807,Sweden,,SE,SWE,60.128161,18.643501,10099270
808,Sweden,Norrbotten,SE,SWE,66.8309,20.3992,250093
809,Sweden,Orebro,SE,SWE,59.535,15.0066,304805
810,Sweden,Ostergotland,SE,SWE,58.3454,15.5198,465495
811,Sweden,Skane,SE,SWE,55.9903,13.5958,1377827
812,Sweden,Sormland,SE,SWE,59.0336,16.7519,297540
813,Sweden,Stockholm,SE,SWE,59.6025,18.1384,2377081
814,Sweden,Uppsala,SE,SWE,60.0092,17.2715,383713
815,Sweden,Varmland,SE,SWE,59.7294,13.2354,282414
816,Sweden,Vasterbotten,SE,SWE,65.3337,16.5162,271736
817,Sweden,Vasternorrland,SE,SWE,63.4276,17.7292,245347
818,Sweden,Vastmanland,SE,SWE,59.6714,16.2159,275845
819,Sweden,Vastra Gotaland,SE,SWE,58.2528,13.0596,1725881
820,Switzerland,,CH,CHE,46.8182,8.2275,8654618
821,Syria,,SY,SYR,34.802075,38.996815,17500657
822,Taiwan,,TW,TWN,23.7,121.0,23816775
823,Tajikistan,,TJ,TJK,38.861,71.2761,9537642
824,Tanzania,,TZ,TZA,-6.369028,34.888822,59734213
825,Thailand,,TH,THA,15.870032,100.992541,69799978
826,Timor-Leste,,TL,TLS,-8.874217,125.727539,1318442
827,Togo,,TG,TGO,8.6195,0.8248,8278737
828,Tonga,,TO,TON,-21.179,-175.1982,105697
829,Trinidad and Tobago,,TT,TTO,10.6918,-61.2225,1399491
830,Tunisia,,TN,TUN,33.886917,9.537499,11818618
831,Turkey,,TR,TUR,38.9637,35.2433,84339067
832,Tuvalu,,TV,TUV,-7.1095,177.6493,11792
833,US,Alabama,US,USA,32.875955642499996,-86.71294851838238,9806370
834,US,Alaska,US,USA,60.3157414184375,-148.69578783125,1475524
835,US,American Samoa,AS,ASM,-14.271,-170.132,55641
836,US,Arizona,US,USA,33.679272164375,-111.46123011875,14557434
837,US,Arkansas,US,USA,34.9126500561842,-92.43317723855263,6035608
838,US,California,US,USA,37.81467755033899,-120.7108485,79024446
839,US,Colorado,US,USA,38.93738716815385,-105.48354549846154,11517472
840,US,Connecticut,US,USA,41.61191568,-72.66778193666667,7130574
841,US,Delaware,US,USA,39.1615826175,-75.52670309249999,1947528
842,US,Diamond Princess,US,USA,,,0
843,US,District of Columbia,US,USA,38.900788864999996,-77.02167996,1411498
844,US,Federal Bureau of Prisons,US,USA,,,0
845,US,Florida,US,USA,28.92348348382353,-82.68583296941176,42955474
846,US,Georgia,US,USA,32.80998256893749,-83.5778403640625,21234846
847,US,Grand Princess,US,USA,,,0
848,US,Guam,GU,GUM,13.4443,144.7937,164229
849,US,Hawaii,US,USA,21.03928583833333,-157.35241373333332,2831744
850,US,Idaho,US,USA,44.262892341555556,-114.46053991999999,3574130
851,US,Illinois,US,USA,39.84852917990291,-89.17646375825242,25343642
852,US,Indiana,US,USA,39.83748270150539,-86.21899567010752,13464438
853,US,Iowa,US,USA,42.0297259233,-93.46296922920001,6310140
854,US,Kansas,US,USA,38.48576777518868,-98.07173972518869,5826628
855,US,Kentucky,US,USA,37.62252365289256,-85.19551218314051,8935346
856,US,Louisiana,US,USA,31.093613116,-91.82485763061538,9297588
857,US,Maine,US,USA,44.68805379411765,-69.51542341470588,2688424
858,US,Maryland,US,USA,39.0168798628,-76.6805329044,12091360
859,US,Massachusetts,US,USA,42.07652180687499,-71.425445713125,13813737
860,US,Michigan,US,USA,44.03508413630952,-85.17400987428572,19973714
861,US,Minnesota,US,USA,45.55363215022727,-94.42492174249998,11279264
862,US,Mississippi,US,USA,32.79211058385541,-89.64612308000001,5952298
863,US,Missouri,US,USA,38.456759198888896,-92.49768272324786,12763799
864,US,Montana,US,USA,46.97376497175439,-109.71362304210527,2137556
865,US,Nebraska,US,USA,41.319705639255325,-99.03081103000001,3868816
866,US,Nevada,US,USA,39.203635814444446,-117.53573833888888,6160312
867,US,New Hampshire,US,USA,43.47656625090909,-71.57640609545454,2719422
868,US,New Jersey,US,USA,40.28700723318182,-74.61783836409091,17764380
869,US,New Mexico,US,USA,34.557921949999994,-105.8977366029412,4193658
870,US,New York,US,USA,42.53814416920635,-75.46583277904762,38907122
871,US,,US,USA,40.0,-100.0,329466283
872,US,North Carolina,US,USA,35.624268029702975,-79.50412152435644,20976168
873,US,North Dakota,US,USA,47.396014010740736,-100.24077503870369,1524124
874,US,Northern Mariana Islands,MP,MNP,15.0979,145.6739,55144
875,US,Ohio,US,USA,40.31154768022471,-82.83461578179775,23378200
876,US,Oklahoma,US,USA,35.50272706153846,-97.24726495794872,7913942
877,US,Oregon,US,USA,44.49455200783783,-121.49297312162159,8435474
878,US,Pennsylvania,US,USA,40.81473602602941,-77.60935434088235,25603978
879,US,Puerto Rico,PR,PRI,18.23987434177215,-66.40732878481013,6387388
880,US,Recovered,US,USA,,,0
881,US,Rhode Island,US,USA,41.65943508833333,-71.47205424833334,2118722
882,US,South Carolina,US,USA,33.95533229851064,-80.98258267744681,10297428
883,US,South Dakota,US,USA,44.27309948059701,-99.31254907626865,1769318
884,US,Tennessee,US,USA,35.88367198083333,-86.11480191583333,13658348
885,US,Texas,US,USA,31.65826640917647,-98.64879578529411,57991762
886,US,US Military,US,USA,,,0
887,US,Utah,US,USA,39.68613850777778,-111.56617620555555,7301918
888,US,Vermont,US,USA,44.15192274533333,-72.68613532533332,1247978
889,US,Veteran Hospitals,US,USA,,,0
890,US,Virgin Islands,VI,VIR,18.3358,-64.8963,107268
891,US,Virginia,US,USA,37.56766636761194,-78.51114672208955,17071038
892,US,Washington,US,USA,47.237964259499996,-120.738502405,15229786
893,US,West Virginia,US,USA,38.808484890535716,-80.62347318267858,3584294
894,US,Wisconsin,US,USA,44.39340865246576,-89.7954939538356,11644868
895,US,Wyoming,US,USA,43.073098609166664,-107.15946127916665,1157518
896,Uganda,,UG,UGA,1.373333,32.290275,45741000
897,Ukraine,Cherkasy Oblast,UA,UKR,49.4444,32.0598,1206351
898,Ukraine,Chernihiv Oblast,UA,UKR,51.4982,31.2893,1005745
899,Ukraine,Chernivtsi Oblast,UA,UKR,48.2917,25.9352,904374
900,Ukraine,Crimea Republic,UA,UKR,45.2835,34.2008,1913731
901,Ukraine,Dnipropetrovsk Oblast,UA,UKR,48.4647,35.0462,3206477
902,Ukraine,Donetsk Oblast,UA,UKR,48.0159,37.8028,4165901
903,Ukraine,Ivano-Frankivsk Oblast,UA,UKR,48.9226,24.7111,1373252
904,Ukraine,Kharkiv Oblast,UA,UKR,49.9935,36.2304,2675598
905,Ukraine,Kherson Oblast,UA,UKR,46.6354,32.6169,1037640
906,Ukraine,Khmelnytskyi Oblast,UA,UKR,49.423,26.9871,1264705
907,Ukraine,Kiev,UA,UKR,50.4501,30.5234,2950800
908,Ukraine,Kiev Oblast,UA,UKR,50.053,30.7667,1767940
909,Ukraine,Kirovohrad Oblast,UA,UKR,48.5079,32.2623,945549
910,Ukraine,Luhansk Oblast,UA,UKR,48.574,39.3078,2151833
911,Ukraine,Lviv Oblast,UA,UKR,49.8397,24.0297,2522021
912,Ukraine,Mykolaiv Oblast,UA,UKR,46.975,31.9946,2522021
913,Ukraine,,UA,UKR,48.3794,31.1656,43733759
914,Ukraine,Odessa Oblast,UA,UKR,46.4846,30.7326,2380308
915,Ukraine,Poltava Oblast,UA,UKR,49.5883,34.5514,1400439
916,Ukraine,Rivne Oblast,UA,UKR,50.6199,26.2516,1157301
917,Ukraine,Sevastopol,UA,UKR,44.6054,33.522,443211
918,Ukraine,Sumy Oblast,UA,UKR,50.9077,34.7981,1081418
919,Ukraine,Ternopil Oblast,UA,UKR,49.5535,25.5948,1045879
920,Ukraine,Vinnytsia Oblast,UA,UKR,49.2331,28.4682,1560394
921,Ukraine,Volyn Oblast,UA,UKR,50.7472,25.3254,1035330
922,Ukraine,Zakarpattia Oblast,UA,UKR,48.6208,22.2879,1256802
923,Ukraine,Zaporizhia Oblast,UA,UKR,47.8388,35.1396,1705836
924,Ukraine,Zhytomyr Oblast,UA,UKR,50.2547,28.6587,1220193
925,United Arab Emirates,,AE,ARE,23.424076,53.847818,9890400
926,United Kingdom,Anguilla,AI,AIA,18.2206,-63.0686,15002
927,United Kingdom,Bermuda,BM,BMU,32.3078,-64.7505,62273
928,United Kingdom,British Virgin Islands,VG,VGB,18.4207,-64.64,30237
929,United Kingdom,Cayman Islands,KY,CYM,19.3133,-81.2546,65720
930,United Kingdom,Channel Islands,GB,GBR,49.3723,-2.3644,170499
931,United Kingdom,England,GB,GBR,52.3555,-1.1743,55977200
932,United Kingdom,Falkland Islands (Malvinas),FK,FLK,-51.7963,-59.5236,3483
933,United Kingdom,Gibraltar,GI,GIB,36.1408,-5.3536,33691
934,United Kingdom,Guernsey,GG,GGY,49.448196,-2.58949,63000
935,United Kingdom,Isle of Man,IM,IMN,54.2361,-4.5481,85032
936,United Kingdom,Jersey,JE,JEY,49.2138,-2.1358,109300
937,United Kingdom,Montserrat,MS,MSR,16.742498,-62.187366,4999
938,United Kingdom,,GB,GBR,55.3781,-3.436,67886004
939,United Kingdom,Northern Ireland,GB,GBR,54.7877,-6.4923,1881600
940,United Kingdom,Pitcairn Islands,PN,PCN,-24.3768,-128.3242,67
941,United Kingdom,"Saint Helena, Ascension and Tristan da Cunha",SH,SHN,-7.9467,-14.3559,5661
942,United Kingdom,Scotland,GB,GBR,56.4907,-4.2026,5463300
943,United Kingdom,Turks and Caicos Islands,TC,TCA,21.694,-71.7979,38718
944,United Kingdom,Wales,GB,GBR,52.1307,-3.7837,3138600
945,Uruguay,,UY,URY,-32.5228,-55.7658,3473727
946,Uzbekistan,,UZ,UZB,41.377491,64.585262,33469199
947,Vanuatu,,VU,VUT,-15.3767,166.9592,292680
948,Venezuela,,VE,VEN,6.4238,-66.5897,28435943
949,Vietnam,,VN,VNM,14.058324,108.277199,97338583
950,West Bank and Gaza,,PS,PSE,31.9522,35.2332,5101416
951,Western Sahara,,EH,ESH,24.2155,-12.8858,597330
952,Winter Olympics 2022,,,,39.9042,116.4074,0
953,Yemen,,YE,YEM,15.552727,48.516388,29825968
954,Zambia,,ZM,ZMB,-13.133897,27.849332,18383956
955,Zimbabwe,,ZW,ZWE,-19.015438,29.154857,14862927
